[{"poiName":"上海迪士尼度假区","address":"上海市浦东新区川沙新镇黄赵路310号","commentCount":232669,"commentScore":4.7,"coordinate":{"coordinateType":"BD09","latitude":31.148267,"longitude":121.671964},"districtEName":"Shanghai","districtId":2,"districtName":"上海","ggCoordinate":{"coordinateType":"GCJ02","latitude":31.142003,"longitude":121.665534},"images":["https://dimg04.c-ctrip.com/images/1lo3w12000dcr7ttkC280.jpg","https://dimg04.c-ctrip.com/images/01055120008ji2uc75021.jpg","https://dimg04.c-ctrip.com/images/100h050000000m88w1495.jpg","https://dimg04.c-ctrip.com/images/100h0q000000gehggB658.jpg","https://dimg04.c-ctrip.com/images/0101u120008t4zqr046E3.jpg"],"openInfo":{"openStatus":"开园中","openStatusType":0,"openTime":"08:30-21:30开放"},"description":"2023年度亲子乐园景点","shortFeature":"充满欢乐童真的梦幻乐园"},{"poiName":"东方明珠","address":"上海市浦东新区陆家嘴世纪大道1号","commentCount":146640,"commentScore":4.7,"coordinate":{"coordinateType":"BD09","latitude":31.245417,"longitude":121.50635},"districtEName":"Shanghai","districtId":2,"districtName":"上海","ggCoordinate":{"coordinateType":"GCJ02","latitude":31.239777,"longitude":121.499739},"images":["https://dimg04.c-ctrip.com/images/010691200097uy8rk36FE.jpg","https://dimg04.c-ctrip.com/images/0105a120009i3g4xgE014.jpg","https://dimg04.c-ctrip.com/images/0104t120009i3g5v767BE.jpg","https://dimg04.c-ctrip.com/images/100s0f0000007i4q0E47E.jpg","https://dimg04.c-ctrip.com/images/0104m120008g5v5of875C.jpg"],"openInfo":{"openStatus":"开园中","openStatusType":0,"openTime":"09:00-21:00开放（20:30停止入园）"},"description":"2023年度必打卡景点","shortFeature":"360度欣赏申城的地标"},{"poiName":"外滩","address":"上海市黄浦区中山东一路（临黄浦江）","commentCount":151424,"commentScore":4.8,"coordinate":{"coordinateType":"BD09","latitude":31.243453,"longitude":121.497204},"districtEName":"Shanghai","districtId":2,"districtName":"上海","ggCoordinate":{"coordinateType":"GCJ02","latitude":31.237771,"longitude":121.490603},"images":["https://dimg04.c-ctrip.com/images/10040m000000dht6p0F19.jpg","https://dimg04.c-ctrip.com/images/100h0z000000mkjxn58E1.jpg","https://dimg04.c-ctrip.com/images/100o0b0000005bxej3E7E.jpg","https://dimg04.c-ctrip.com/images/100c0u000000jjrxyD76A.jpg","https://dimg04.c-ctrip.com/images/100n0i0000009natg9924.jpg"],"openInfo":{"openStatus":"开园中","openStatusType":0,"openTime":"全天开放"},"description":"上海夜景榜 No.2","shortFeature":"欣赏万国建筑和浦江美景"},{"poiName":"上海野生动物园","address":"上海市浦东新区南六公路178号","commentCount":102020,"commentScore":4.7,"coordinate":{"coordinateType":"BD09","latitude":31.06138,"longitude":121.727995},"districtEName":"Shanghai","districtId":2,"districtName":"上海","ggCoordinate":{"coordinateType":"GCJ02","latitude":31.055592,"longitude":121.721461},"images":["https://dimg04.c-ctrip.com/images/1lo4j12000djxrbbk3E2B.jpg","https://dimg04.c-ctrip.com/images/1lo6212000dhvzvqy778D.jpg","https://dimg04.c-ctrip.com/images/1lo2012000be7lupu1D85.jpg","https://dimg04.c-ctrip.com/images/1lo6812000d4v7a4q82E4.jpg","https://dimg04.c-ctrip.com/images/1lo2n12000d4v7aob5413.jpg"],"openInfo":{"openStatus":"开园中","openStatusType":0,"openTime":"09:00-17:00开放（16:00停止入园）"},"description":"2023年度亲子乐园景点","shortFeature":"与世界各地动物亲密接触"},{"poiName":"豫园","address":"上海市黄浦区福佑路168号","commentCount":45879,"commentScore":4.7,"coordinate":{"coordinateType":"BD09","latitude":31.232431,"longitude":121.49909},"districtEName":"Shanghai","districtId":2,"districtName":"上海","ggCoordinate":{"coordinateType":"GCJ02","latitude":31.226764,"longitude":121.492484},"images":["https://dimg04.c-ctrip.com/images/1A0hhk124f849nma8EBD7.jpg","https://dimg04.c-ctrip.com/images/0100k1200096jdh6pD284.png","https://dimg04.c-ctrip.com/images/100g1d000001eog159F4A.jpg","https://dimg04.c-ctrip.com/images/0104f1200096jdpqoAE2D.jpg","https://dimg04.c-ctrip.com/images/0101v1200096jdzuzD63E.jpg"],"openInfo":{"openStatus":"开园中","openStatusType":0,"openTime":"09:00-16:30开放（16:00停止入园）"},"description":"上海近期热门景点榜 No.3","shortFeature":"留存完好的百年古典园林"},{"poiName":"上海海昌海洋公园","address":"上海市浦东新区南汇新城镇银飞路166号","commentCount":37231,"commentScore":4.6,"coordinate":{"coordinateType":"BD09","latitude":30.920947,"longitude":121.910782},"districtEName":"Shanghai","districtId":2,"districtName":"上海","ggCoordinate":{"coordinateType":"GCJ02","latitude":30.914702,"longitude":121.904359},"images":["https://dimg04.c-ctrip.com/images/1lo4h12000dj5fckl257A.jpg","https://dimg04.c-ctrip.com/images/1lo3612000dobd996C739.jpg","https://dimg04.c-ctrip.com/images/1lo2f12000dobd05e1692.jpg","https://dimg04.c-ctrip.com/images/1lo3m12000dobdi8rD1C8.jpg","https://dimg04.c-ctrip.com/images/1lo1d12000doj1zx84C8F.jpg"],"openInfo":{"openStatus":"开园中","openStatusType":0,"openTime":"09:30-17:30开放（16:30停止售票，16:30停止入园）"},"description":"2023年度亲子乐园景点","shortFeature":"看珍稀海洋生物玩刺激项目"},{"poiName":"南京路步行街","address":"上海市黄浦区河南中路","commentCount":43653,"commentScore":4.7,"coordinate":{"coordinateType":"BD09","latitude":31.243231,"longitude":121.4907},"districtEName":"Shanghai","districtId":2,"districtName":"上海","ggCoordinate":{"coordinateType":"GCJ02","latitude":31.234721,"longitude":121.474898},"images":["https://dimg04.c-ctrip.com/images/1A0v14000000wqy2e5101.jpg","https://dimg04.c-ctrip.com/images/0106u120008c3zeiy8417.jpg","https://dimg04.c-ctrip.com/images/10050z000000nx3gp3FD3.jpg"],"openInfo":{"openStatusType":0,"openTime":"全年全天开放"},"description":"上海必打卡景点榜 No.8","shortFeature":"上海知名的商业步行街"},{"poiName":"上海海洋水族馆","address":"上海市浦东新区陆家嘴环路1388号","commentCount":42407,"commentScore":4.6,"coordinate":{"coordinateType":"BD09","latitude":31.246755,"longitude":121.508587},"districtEName":"Shanghai","districtId":2,"districtName":"上海","ggCoordinate":{"coordinateType":"GCJ02","latitude":31.241113,"longitude":121.501978},"images":["https://dimg04.c-ctrip.com/images/tg/357/014/064/84e04a5ad7774a59a5f88b5864499a1b.jpg","https://dimg04.c-ctrip.com/images/fd/tg/g2/M08/29/A4/CghzgVWLmA-AQlgFAAOq6mlx1pE069.jpg","https://dimg04.c-ctrip.com/images/0100e120008j23xf4A218.jpg","https://dimg04.c-ctrip.com/images/0100z120008j2s3w45151.jpg","https://dimg04.c-ctrip.com/images/0104312000935rvzjE769.jpg"],"openInfo":{"openStatus":"开园中","openStatusType":0,"openTime":"09:00-18:00开放（17:30停止售票，17:30停止入园）"},"description":"2023年度亲子乐园景点","shortFeature":"漫步海底隧道观赏海洋生物"}]